{
    "AG":
      {
        "name": "An Giang",
        "capital": "Long Xuyên",
        "lat": 10.3754,
        "long": 105.4186
      },

     "VT": {
        "name": "Bà Rịa - Vũng Tàu",
        "capital": "Vũng Tàu",
        "lat": 10.3459,
        "long": 107.0848
      },
      "BG":{
        "name": "Bắc Giang",
        "capital": "Bắc Giang",
        "lat": 21.2787,
        "long": 106.1944
      },
      "BK":{
        "name": "Bắc Kạn",
        "capital": "Bắc Kạn",
        "lat": 22.1496,
        "long": 105.8337
      },
      "BL":{
        "name": "Bạc Liêu",
        "capital": "Bạc Liêu",
        "lat": 9.285,
        "long": 105.7243
      },
      "BN":{
        "name": "Bắc Ninh",
        "capital": "Bắc Ninh",
        "lat": 21.1861,
        "long": 106.0636
      },
      "BT":{
        "name": "Bến Tre",
        "capital": "Bến Tre",
        "lat": 10.2354,
        "long": 106.375
      },
      "BĐ":{
        "name": "Bình Định",
        "capital": "Quy Nhơn",
        "lat": 13.7915,
        "long": 109.2282
      },
      "BD":{
        "name": "Bình Dương",
        "capital": "Thủ Dầu Một",
        "lat": 11.1256,
        "long": 106.6527
      },
      "BP":{
        "name": "Bình Phước",
        "capital": "Đồng Xoài",
        "lat": 11.529,
        "long": 106.9087
      },
      "BTN":{
        "name": "Bình Thuận",
        "capital": "Phan Thiết",
        "lat": 10.929,
        "long": 108.1177
      },
      "CM":{
        "name": "Cà Mau",
        "capital": "Cà Mau",
        "lat": 9.187,
        "long": 105.15
      },
      "CB":{
        "name": "Cao Bằng",
        "capital": "Cao Bằng",
        "lat": 22.6686,
        "long": 106.2484
      },
      "ĐL":{
        "name": "Đắk Lắk",
        "capital": "Buôn Ma Thuột",
        "lat": 12.6656,
        "long": 108.0425
      },
      "ĐK":{
        "name": "Đắk Nông",
        "capital": "Gia Nghĩa",
        "lat": 11.9134,
        "long": 107.235
      },
      "ĐB":{
        "name": "Điện Biên",
        "capital": "Điện Biên Phủ",
        "lat": 21.3843,
        "long": 103.0096
      },
      "ĐN":{
        "name": "Đồng Nai",
        "capital": "Biên Hòa",
        "lat": 10.9547,
        "long": 106.8506
      },
      "ĐT":{
        "name": "Đồng Tháp",
        "capital": "Cao Lãnh",
        "lat": 10.4643,
        "long": 105.6255
      },
      "GL":{
        "name": "Gia Lai",
        "capital": "Plei Ku",
        "lat": 13.9901,
        "long": 108.2089
      },
      "HGI":{
        "name": "Hà Giang",
        "capital": "Hà Giang",
        "lat": 22.8251,
        "long": 104.9831
      },
      "HA":{
        "name": "Hà Nam",
        "capital": "Phủ Lý",
        "lat": 20.5473,
        "long": 105.9227
      },
      "HT":{
        "name": "Hà Tĩnh",
        "capital": "Hà Tĩnh",
        "lat": 18.3428,
        "long": 105.9014
      },
      "HD":{
        "name": "Hải Dương",
        "capital": "Hải Dương",
        "lat": 20.9306,
        "long": 106.322
      },
      "HG":{
        "name": "Hậu Giang",
        "capital": "Vị Thanh",
        "lat": 9.7844,
        "long": 105.467
      },
      "HB":{
        "name": "Hòa Bình",
        "capital": "Hòa Bình",
        "lat": 20.8081,
        "long": 105.3346
      },
      "HY":{
        "name": "Hưng Yên",
        "capital": "Hưng Yên",
        "lat": 20.6465,
        "long": 106.0511
      },
      "KH":{
        "name": "Khánh Hòa",
        "capital": "Nha Trang",
        "lat": 12.2388,
        "long": 109.1966
      },
      "KG":{
        "name": "Kiên Giang",
        "capital": "Rạch Giá",
        "lat": 10.0128,
        "long": 105.0809
      },
      "KT":{
        "name": "Kon Tum",
        "capital": "Kon Tum",
        "lat": 14.3586,
        "long": 108.0049
      },
      "LC":{
        "name": "Lai Châu",
        "capital": "Lai Châu",
        "lat": 22.3964,
        "long": 103.4565
      },
      "LD":{
        "name": "Lâm Đồng",
        "capital": "Đà Lạt",
        "lat": 11.9454,
        "long": 108.448
      },
      "LS":{
        "name": "Lạng Sơn",
        "capital": "Lạng Sơn",
        "lat": 21.8567,
        "long": 106.7297
      },
      "LI":{
        "name": "Lào Cai",
        "capital": "Lào Cai",
        "lat": 22.4857,
        "long":103.873802
      },
      "LA":{
        "name": "Long An",
        "capital": "Tân An",
        "lat": 10.5411,
        "long": 106.3489
      },
      "NĐ":{
        "name": "Nam Định",
        "capital": "Nam Định",
        "lat": 20.4245,
        "long": 106.1739
      },
      "NA":{
        "name": "Nghệ An",
        "capital": "Viñh",
        "lat": 18.6734,
        "long": 105.6923
      },
      "NB":{
        "name": "Ninh Bình",
        "capital": "Ninh Bình",
        "lat": 20.2526,
        "long": 105.975
      },
      "NT":{
        "name": "Ninh Thuận",
        "capital": "Phan Rang–Tháp Chàm",
        "lat": 11.5666,
        "long": 108.9876
      },
      "PT":{
        "name": "Phú Thọ",
        "capital": "Việt Trì",
        "lat": 21.3264,
        "long": 105.405
      },
      "PY":{
        "name": "Phú Yên",
        "capital": "Tuy Hòa",
        "lat": 13.0882,
        "long": 109.0929
      },
      "QB":{
        "name": "Quảng Bình",
        "capital": "Đồng Hới",
        "lat": 17.4827,
        "long": 106.6004
      },
      "QM":{
        "name": "Quảng Nam",
        "capital": "Tam Kỳ",
        "lat": 15.573,
        "long": 108.4743
      },
      "QN":{
        "name": "Quảng Ngãi",
        "capital": "Quảng Ngãi",
        "lat": 15.119,
        "long": 108.8017
      },
      "QH":{
        "name": "Quảng Ninh",
        "capital": "Hạ Long",
        "lat": 20.9504,
        "long": 107.0731
      },
      "QT":{
        "name": "Quảng Trị",
        "capital": "Đông Hà",
        "lat": 16.8106,
        "long": 107.0926
      },
      "ST":{
        "name": "Sóc Trăng",
        "capital": "Sóc Trăng",
        "lat": 9.6015,
        "long": 105.9715
      },
      "SL":{
        "name": "Sơn La",
        "capital": "Sơn La",
        "lat": 21.1474,
        "long": 104.0499
      },
      "TNH":{
        "name": "Tây Ninh",
        "capital": "Tây Ninh",
        "lat": 11.3345,
        "long": 106.1194
      },
      "TB":{
        "name": "Thái Bình",
        "capital": "Thái Bình",
        "lat": 20.4532,
        "long": 106.3439
      },
      "TN":{
        "name": "Thái Nguyên",
        "capital": "Thái Nguyên",
        "lat": 21.5928,
        "long": 105.8442
      },
      "TH":{
        "name": "Thanh Hóa",
        "capital": "Thanh Hóa",
        "lat": 19.8079,
        "long": 105.7761
      },
      "TTH":{
        "name": "Thừa Thiên Huế",
        "capital": "Huế",
        "lat": 16.4637,
        "long": 107.5909
      },
      "TG":{
        "name": "Tiền Giang",
        "capital": "Mỹ Tho",
        "lat": 10.3544,
        "long": 106.3698
      },
      "TV":{
        "name": "Trà Vinh",
        "capital": "Trà Vinh",
        "lat": 9.9372,
        "long": 106.3456
      },
      "TQ":{
        "name": "Tuyên Quang",
        "capital": "Tuyên Quang",
        "lat": 21.8235,
        "long": 105.2183
      },
      "VL":{
        "name": "Vĩnh Long",
        "capital": "Vĩnh Long",
        "lat": 10.2534,
        "long": 105.9728
      },
      "VP":{
        "name": "Vĩnh Phúc",
        "capital": "Vĩnh Yên",
        "lat": 21.307,
        "long": 105.5959
      },
      "YB":{
        "name": "Yên Bái",
        "capital": "Yên Bái",
        "lat": 21.7224,
        "long": 104.911
      },
      "ĐNG":{
        "name": "Đà Nẵng",
        "capital": "Đà Nẵng",
        "lat": 16.0544,
        "long": 108.2022
      },
      "HP":{
        "name": "Hải Phòng",
        "capital": "Hải Phòng",
        "lat": 20.862,
        "long": 106.6801
      },
      "HN":{
        "name": "Hà Nội",
        "capital": "Hà Nội",
        "lat": 21.0285,
        "long": 105.8542
      },
      "HM":{
        "name": "Hồ Chí Minh",
        "capital": "Hồ Chí Minh",
        "lat": 10.8231,
        "long": 106.6297
      }
    
    
  
}

  